{"0":{"address":"333 West Camden Street","ballpark":"Oriole Park","location":"Baltimore, MD 21201","name":"Baltimore Orioles"},"1":{"address":"4 Yawkey Way","ballpark":"Fenway Park","location":"Boston, MA 02215","name":"Boston Red Sox"},"10":{"address":"7000 Coliseum Way","ballpark":"Oakland Coliseum","location":"Oakland, CA 94621","name":"Oakland Athletics"},"11":{"address":"P.O. Box 4100","ballpark":"Safeco Field","location":"Seattle, WA 98104","name":"Seattle Mariners"},"12":{"address":"One Tropicana Drive","ballpark":"Tropicana Field","location":"St. Petersburg, FL 33705","name":"Tampa Bay Rays"},"13":{"address":"1000 Ballpark Way","ballpark":"Globe Life Park in Arlington","location":"Arlington, TX 76011","name":"Texas Rangers"},"14":{"address":"1 Blue Jays Way, Suite 3200","ballpark":"Rogers Centre","location":"Toronto, Ontario, Canada M5V1J1","name":"Toronto Blue Jays"},"15":{"address":"401 East Jefferson Street","ballpark":"Chase Field","location":"Phoenix, AZ 85004","name":"Arizona Diamondbacks"},"16":{"address":"755 Battery Avenue","ballpark":"SunTrust Park","location":"Atlanta, GA 30339","name":"Atlanta Braves"},"17":{"address":"1060 West Addison","ballpark":"Wrigley Field","location":"Chicago, IL 60613-4397","name":"Chicago Cubs"},"18":{"address":"100 Main Street","ballpark":"Great American Ball Park","location":"Cincinnati, OH 45202-4109","name":"Cincinnati Reds"},"19":{"address":"2001 Blake Street","ballpark":"Coors Field","location":"Denver, CO 80205-2000","name":"Colorado Rockies"},"2":{"address":"333 West 35th Street","ballpark":"Guaranteed Rate Field","location":"Chicago, IL 60616","name":"Chicago White Sox"},"20":{"address":"1000 Vin Scully Avenue","ballpark":"Dodger Stadium","location":"Los Angeles, CA 90012","name":"Los Angeles Dodgers"},"21":{"address":"501 Marlins Way","ballpark":"Marlins Park","location":"Miami, FL 33125","name":"Miami Marlins"},"22":{"address":"One Brewers Way","ballpark":"Miller Park","location":"Milwaukee, WI 53214","name":"Milwaukee Brewers"},"23":{"address":"120-01 Roosevelt Avenue","ballpark":"Citi Field","location":"Corona, NY 11368","name":"New York Mets"},"24":{"address":"One Citizens Bank Way","ballpark":"Citizens Bank Park","location":"Philadelphia, PA 19148","name":"Philadelphia Phillies"},"25":{"address":"115 Federal Street","ballpark":"PNC Park","location":"Pittsburgh, PA 15212","name":"Pittsburgh Pirates"},"26":{"address":"100 Park Boulevard","ballpark":"Petco Park","location":"San Diego, CA 92101","name":"San Diego Padres"},"27":{"address":"24 Willie Mays Plaza","ballpark":"AT\u0026T Park","location":"San Francisco, CA 94107","name":"San Francisco Giants"},"28":{"address":"700 Clark Street","ballpark":"Busch Stadium","location":"St. Louis, MO 63102","name":"St. Louis Cardinals"},"29":{"address":"1500 South Capitol Street, SE","ballpark":"Nationals Park","location":"Washington, DC 20003-1507","name":"Washington Nationals"},"3":{"address":"2401 Ontario Street","ballpark":"Progressive Field","location":"Cleveland, OH 44115","name":"Cleveland Indians"},"4":{"address":"2100 Woodward Avenue","ballpark":"Comerica Park","location":"Detroit, MI 48201","name":"Detroit Tigers"},"5":{"address":"501 Crawford Street","ballpark":"Minute Maid Park","location":"Houston, TX 77002","name":"Houston Astros"},"6":{"address":"One Royal Way","ballpark":"Kauffman Stadium","location":"Kansas City, MO 64129","name":"Kansas City Royals"},"7":{"address":"2000 Gene Autry Way","ballpark":"Angel Stadium","location":"Anaheim, CA 92806","name":"Los Angeles Angels"},"8":{"address":"1 Twins Way","ballpark":"Target Field","location":"Minneapolis, MN 55403","name":"Minnesota Twins"},"9":{"address":"One East 161st Street","ballpark":"Yankee Stadium","location":"Bronx, NY 10451","name":"New York Yankees"}}